<?xml version="1.0" encoding="utf-8" ?>
<kml xmlns="http://www.opengis.net/kml/2.2">
<Document id="root_doc">
<Folder><name>Lokasi_Penting</name>
  <Placemark>
	<name>RSUD BANYORANG</name>
      <Point><coordinates>120.040204170996,-5.45213006601267</coordinates></Point>
  </Placemark>
  <Placemark>
	<name>Lapangan Banyorang</name>
      <Point><coordinates>120.040534916471,-5.45348463017836</coordinates></Point>
  </Placemark>
  <Placemark>
	<name>Kantor Lurah Banyorang</name>
      <Point><coordinates>120.040720909059,-5.45408360744102</coordinates></Point>
  </Placemark>
  <Placemark>
	<name>SMPN 1 Tompobulu</name>
      <Point><coordinates>120.039894965899,-5.45116386986495</coordinates></Point>
  </Placemark>
  <Placemark>
	<name>Masjid Besar Banyorang</name>
      <Point><coordinates>120.039579710143,-5.45026442787095</coordinates></Point>
  </Placemark>
  <Placemark>
	<name>Masjid Nurul Iman</name>
      <Point><coordinates>120.038884352502,-5.44643456420866</coordinates></Point>
  </Placemark>
  <Placemark>
	<name>SD Impres Banyorang</name>
      <Point><coordinates>120.041596340074,-5.45692031327875</coordinates></Point>
  </Placemark>
  <Placemark>
	<name>SDN 53 Banyorang</name>
      <Point><coordinates>120.039411118513,-5.44960618300469</coordinates></Point>
  </Placemark>
  <Placemark>
	<name>Masjid Nurul Na'im</name>
      <Point><coordinates>120.038268463763,-5.45265708331697</coordinates></Point>
  </Placemark>
  <Placemark>
	<name>Kantor Camat Tompobulu</name>
      <Point><coordinates>120.040185216891,-5.45234834038183</coordinates></Point>
  </Placemark>
  <Placemark>
	<name>Pos Damkar Banyorang</name>
      <Point><coordinates>120.040333440533,-5.45254241499045</coordinates></Point>
  </Placemark>
  <Placemark>
	<name>Polres Banyorang</name>
      <Point><coordinates>120.040094084739,-5.45177770763459</coordinates></Point>
  </Placemark>
  <Placemark>
	<name>Koramil Tompobulu</name>
      <Point><coordinates>120.040562380224,-5.45212508605285</coordinates></Point>
  </Placemark>
  <Placemark>
	<name>MA AL-Murahmah Banyorang</name>
      <Point><coordinates>120.038937128425,-5.44977646857213</coordinates></Point>
  </Placemark>
  <Placemark>
	<Style><LineStyle><color>ff0000ff</color></LineStyle><PolyStyle><fill>0</fill></PolyStyle></Style>
      <Polygon><outerBoundaryIs><LinearRing><coordinates>120.02952056942,-5.4737780513152 120.030253535773,-5.47281186737297 120.031319670368,-5.47201226575265 120.032085953905,-5.47117934874712 120.032985504379,-5.47071291626724 120.033885053953,-5.47034643174164 120.034484755168,-5.4692469808627 120.034618022105,-5.46888049813565 120.035950688774,-5.46818084806687 120.036650339742,-5.46768109840314 120.037016823369,-5.46628179826558 120.039115773575,-5.46568209705031 120.040248540739,-5.46524897995568 120.04144794227,-5.46458264617137 120.042347491844,-5.46421616344441 120.043213726034,-5.46398294585543 120.043513576192,-5.4634498790079 120.044154199258,-5.46267671385846 120.044053157728,-5.46263555008977 120.043462235695,-5.4620774578076 120.04339657889,-5.46171634043593 120.043265264382,-5.46096127414268 120.04323243463,-5.46033752505594 120.043330921186,-5.45938548475153 120.043462235695,-5.45866324910884 120.043363750038,-5.45840061739374 120.042936974063,-5.45794101166757 120.042608684644,-5.45751423569261 120.042411709734,-5.45682482800259 120.042116250965,-5.45616824916453 120.042116250965,-5.45580713089357 120.042050593261,-5.45485509328712 120.042149079817,-5.4543626578096 120.042510198088,-5.45354193471172 120.04254302694,-5.45321364529269 120.042477369236,-5.45288535587366 120.041984933759,-5.45242575104674 120.04168947499,-5.45206463097713 120.041590988434,-5.45130956738183 120.041558158683,-5.45052167223656 120.041361184672,-5.4501277251136 120.041262698116,-5.44973377799067 120.041197042211,-5.44901154234798 120.04116421156,-5.44812515974753 120.041098553856,-5.44753423771408 120.040835923041,-5.44668068666356 120.040671777881,-5.44579430586174 120.040507631823,-5.44428417417446 120.040417230172,-5.44395872481448 120.039535534838,-5.44393353300535 120.038911240762,-5.44317050681264 120.038113533114,-5.44285836112368 120.037246458059,-5.44303177469584 120.036622163983,-5.4434132886915 120.036067237314,-5.4441416316302 120.035685723319,-5.44507807319371 120.035165478105,-5.44632666044624 120.034159670933,-5.44736714997316 120.033431327994,-5.44819954177462 120.033119181406,-5.4487544702418 120.032702985056,-5.44930939780966 120.032044007726,-5.44989900863152 120.031542558343,-5.45033715563442 120.031530233135,-5.45081538811888 120.031478031987,-5.45149400034705 120.03168683568,-5.45243361831604 120.03168683568,-5.45363423932787 120.031634635431,-5.45467825689525 120.031217028044,-5.45540907027156 120.030851620907,-5.45587887790708 120.030851620907,-5.45671409178112 120.030956023203,-5.45713170006713 120.030173008679,-5.45807131713678 120.029598798747,-5.45906313355595 120.02912899201,-5.45984614808049 120.028345976587,-5.46015935407014 120.027771766655,-5.46026375726575 120.02730195812,-5.46026375726575 120.027093155326,-5.4604203580123 120.026936551882,-5.46182978271748 120.02667554704,-5.46282160093534 120.025840332267,-5.46412662424347 120.0247963138,-5.4654838478005 120.02416990272,-5.46647566601837 120.023178086301,-5.46720647669672 120.022447272025,-5.46772848817835 120.02197746439,-5.46840710040652 120.021351054209,-5.46908571173537 120.020933445024,-5.47117374776946 120.02041143624,-5.47279197706728 120.019941626806,-5.47352279044362 120.019576220567,-5.47430580406882 120.019222821177,-5.47457765113687 120.019525563555,-5.47457765113687 120.020158581055,-5.47494413476318 120.020891548307,-5.47527730120567 120.021357980787,-5.47541056814242 120.021491247724,-5.47584368523707 120.021624514661,-5.47611021911052 120.022057631755,-5.4762101679641 120.02225753216,-5.4763434349008 120.022457431666,-5.47684318726249 120.022457431666,-5.47720966909014 120.022390799097,-5.47760946900098 120.022290849344,-5.47780936940609 120.02139129887,-5.47830911996908 120.020525063782,-5.47880886873349 120.020191898238,-5.47904208722173 120.019925364365,-5.47940856994876 120.020025315017,-5.47967510382217 120.020191898238,-5.48000827026464 120.020425114928,-5.48017485438522 120.020091947586,-5.48107440395979 120.019792098328,-5.48190732096526 120.019758781144,-5.48250702218052 120.019775815203,-5.48279990259261 120.020491748397,-5.48250702218052 120.02139129887,-5.48244038781286 120.02225753216,-5.48234043805996 120.02312376635,-5.48170742056021 120.023890049887,-5.48127430436484 120.02502281705,-5.4811077220429 120.026622016694,-5.48074123931594 120.027321666763,-5.48054133711219 120.028287850705,-5.47970842100602 120.029587202888,-5.47877555334832 120.029553885704,-5.47804258609569 120.029487253135,-5.47757615271645 120.029087453224,-5.4769098189322 120.028954187187,-5.47664328505874 120.02882092025,-5.47597695217378 120.02882092025,-5.47511071798442 120.028954187187,-5.47454433395302 120.02952056942,-5.4737780513152</coordinates></LinearRing></outerBoundaryIs></Polygon>
  </Placemark>
  <Placemark>
	<name>Kantor KUA Banyorang</name>
      <Point><coordinates>120.039558557306,-5.45004561957949</coordinates></Point>
  </Placemark>
</Folder>
</Document></kml>
